{
  "3": {
    "diction_name": "Institutes",
    "codes": {
      "1CANALA": {
        "description": "University of Alberta, Edmonton, Alberta",
        "latitude": 53.5229047,
        "longitude": -113.5255794,
        "address": "University Of Alberta, Edmonton, AB T6G, Canada",
        "active": true
      },
      "1CANBUQ": {
        "description": "Bishop University, Lennoxville, Quebec",
        "latitude": 45.3620588,
        "longitude": -71.84553679999999,
        "address": "2600 Rue College, Sherbrooke, QC J1M 1Z7, Canada",
        "active": true
      },
      "1CANCAN": {
        "description": "Canada",
        "latitude": 56.130366,
        "longitude": -106.346771,
        "address": "2600 Rue College, Sherbrooke, QC J1M 1Z7, Canada",
        "active": true
      },
      "1CANCPO": {
        "description": "A.E.C.L. Commercial Products, Ottawa, Ontario",
        "latitude": 45.4285637,
        "longitude": -75.61472499999999,
        "address": "1900 City Park Dr, Gloucester, ON K1J 1A3, Canada",
        "active": true
      },
      "1CANCRC": {
        "description": "A.E.C.L., Chalk River, Ontario",
        "latitude": 46.0235656,
        "longitude": -77.43014579999999,
        "address": "286 Plant Rd, Chalk River, ON K0J 1J0, Canada",
        "active": true
      },
      "1CANCRL": {
        "description": "Carleton University, Ottawa, Ontario",
        "latitude": 45.3830819,
        "longitude": -75.698312,
        "address": "Carleton University, Ottawa, ON, Canada",
        "active": true
      },
      "1CANGUE": {
        "description": "University of Guelph, Guelph, Ontario",
        "latitude": 43.5327217,
        "longitude": -80.22618039999999,
        "address": "50 Stone Rd E, Guelph, ON N1G 2W1, Canada",
        "active": true
      },
      "1CANKQU": {
        "description": "Queen's University, Kingston, Ontario",
        "latitude": 44.2252795,
        "longitude": -76.49514119999999,
        "address": "99 University Ave, Kingston, ON K7L 3N6, Canada",
        "active": false
      },
      "1CANLUQ": {
        "description": "Laval University, Sainte-Foy, Quebec",
        "latitude": 46.78174629999999,
        "longitude": -71.2747424,
        "address": "2325 Rue de l'Universit\u00e9, Qu\u00e9bec, QC G1V 0A6, Canada",
        "active": true
      },
      "1CANMCG": {
        "description": "McGill University, Montreal,Quebec",
        "latitude": 45.5018869,
        "longitude": -73.56739189999999,
        "address": "Montreal, QC, Canada",
        "active": true
      },
      "1CANMCM": {
        "description": "McMaster University, Hamilton, Ontario",
        "latitude": 43.260879,
        "longitude": -79.9192254,
        "address": "1280 Main St W, Hamilton, ON L8S 4L8, Canada",
        "active": true
      },
      "1CANMGW": {
        "description": "Sir George Williams University , Montreal, Quebec",
        "latitude": 45.49698739999999,
        "longitude": -73.5788077,
        "address": "Montreal, QC H3G 1M8, Canada",
        "active": true
      },
      "1CANMNA": {
        "description": "University of Manitoba, Cyclotron Laboratory , Winnipeg, Manitoba",
        "latitude": 49.8096665,
        "longitude": -97.1330969,
        "address": "The University of Manitoba, Winnipeg, MB R3T 2N2, Canada",
        "active": true
      },
      "1CANMON": {
        "description": "University of Montreal, Montreal, Quebec",
        "latitude": 45.500685,
        "longitude": -73.6173714,
        "address": "114 Av. Louis-Colin, Montr\u00e9al, QC H3T 1N8, Canada",
        "active": true
      },
      "1CANMPT": {
        "description": "Ecole Polytechnique de Montreal, Quebec",
        "latitude": 45.5047939,
        "longitude": -73.6131831,
        "address": "2500 Chem. de Polytechnique, Montr\u00e9al, QC H3T 1J4, Canada",
        "active": true
      },
      "1CANMRC": {
        "description": "National Research Council, Montreal Laboratory , Quebec",
        "latitude": 45.4972287,
        "longitude": -73.6179954,
        "address": "\u00c9difice Decelles, 5145 Av. Decelles, Montr\u00e9al, QC H3T 2B2, Canada",
        "active": true
      },
      "1CANOTC": {
        "description": "National Research Council, Ottawa, Ontario",
        "latitude": 45.4215296,
        "longitude": -75.69719309999999,
        "address": "Ottawa, ON, Canada",
        "active": true
      },
      "1CANOTU": {
        "description": "University of Ottawa, Ottawa, Ontario",
        "latitude": 45.42310639999999,
        "longitude": -75.68313289999999,
        "address": "75 Laurier Ave E, Ottawa, ON K1N 6N5, Canada",
        "active": true
      },
      "1CANPIN": {
        "description": "A.E.C.L., Whiteshell Nuclear Research Establ.,Pinaua,Manitoba",
        "latitude": 49.737039,
        "longitude": -95.20693299999999,
        "address": "Whiteshell, MB R0E 0A8, Canada",
        "active": true
      },
      "1CANQU": {
        "description": "Queen's University , Kingston, Ontario",
        "latitude": 44.2252795,
        "longitude": -76.49514119999999,
        "address": "99 University Ave, Kingston, ON K7L 3N6, Canada",
        "active": true
      },
      "1CANSAS": {
        "description": "University of Saskatchewan, Saskatoon, Saskatchewan",
        "latitude": 52.1333989,
        "longitude": -106.6313567,
        "address": "105 Administration Pl, Saskatoon, SK S7N 5A2, Canada",
        "active": true
      },
      "1CANSFU": {
        "description": "Simon Frazer University, Burnaby, B.C.",
        "latitude": 49.2789205,
        "longitude": -122.9214086,
        "address": "Terry Fox Ln, Burnaby, BC V5A, Canada",
        "active": true
      },
      "1CANSMR": {
        "description": "Saint Mary's University , Halifax, Nova Scotia",
        "latitude": 44.6313301,
        "longitude": -63.581457,
        "address": "923 Robie St, Halifax, NS B3H 3C3, Canada",
        "active": true
      },
      "1CANTMF": {
        "description": "Tri University Meson Facility, Vancouver, B.C.",
        "latitude": 49.2033417,
        "longitude": -123.127589,
        "address": "9005 Shaughnessy St, Vancouver, BC V6P 6R9, Canada",
        "active": true
      },
      "1CANTOR": {
        "description": "University of Toronto, Toronto, Ontario",
        "latitude": 43.6633848,
        "longitude": -79.3960062,
        "address": "27 King's College Cir, Toronto, ON M5S 1A1, Canada",
        "active": true
      },
      "1CANUBC": {
        "description": "University of British Columbia, Vancouver, B.C.",
        "latitude": 49.26060520000001,
        "longitude": -123.2459939,
        "address": "Vancouver, BC V6T 1Z4, Canada",
        "active": true
      },
      "1CANUWO": {
        "description": "University of Western Ontario, London, Ontario",
        "latitude": 43.0095971,
        "longitude": -81.2737336,
        "address": "1151 Richmond St, London, ON N6A 3K7, Canada",
        "active": true
      },
      "1CANVCT": {
        "description": "University of Victoria, Victoria, B.C.",
        "latitude": 48.4316064,
        "longitude": -123.3805366,
        "address": "125 Wilson St, Victoria, BC V9A 6X1, Canada",
        "active": true
      },
      "1USAABD": {
        "description": "U.S. Army Aberdeen Research + Development Center, Aberdeen, MD",
        "latitude": 39.5009206,
        "longitude": -76.1792896,
        "address": "C St, Aberdeen, MD 21001, USA",
        "active": true
      },
      "1USAACC": {
        "description": "Exxon Nuclear Idaho Co., ID",
        "latitude": 45.9019541,
        "longitude": -115.7237432,
        "address": "Idaho County, ID, USA",
        "active": true
      },
      "1USAAEC": {
        "description": "U.S. Atomic Energy Commission, Washington, DC",
        "latitude": 38.9071923,
        "longitude": -77.0368707,
        "address": "Washington, DC, USA",
        "active": true
      },
      "1USAAFT": {
        "description": "Air Force Institute Technology, Wright-Patterson AFB, OH",
        "latitude": 39.78274100000001,
        "longitude": -84.082757,
        "address": "2950 Hobson Way, Wright-Patterson AFB, OH 45433, USA",
        "active": true
      },
      "1USAAFW": {
        "description": "Air Force Weapons Laboratory , Kirkland AFB, Albuquerque, NM",
        "latitude": 35.0128396,
        "longitude": -106.5112712,
        "address": "Kirtland AFB, Albuquerque, NM, USA",
        "active": true
      },
      "1USAAGN": {
        "description": "Aerojet-General Nucleonics, San Ramon, CA",
        "latitude": 37.7643595,
        "longitude": -121.9539616,
        "address": "San Ramon, CA, USA",
        "active": true
      },
      "1USAAI": {
        "description": "Rockwell International , Energy Systems Group, Canoga Park, CA",
        "latitude": 34.208254,
        "longitude": -118.6058609,
        "address": "Canoga Park, Los Angeles, CA, USA",
        "active": true
      },
      "1USAAIF": {
        "description": "Argonne National Laboratory - West, Idaho Falls, ID",
        "latitude": 43.49266069999999,
        "longitude": -112.0407584,
        "address": "Idaho Falls, ID, USA",
        "active": true
      },
      "1USAAIP": {
        "description": "American Institute of Physics, New York, NY",
        "latitude": 40.7127753,
        "longitude": -74.0059728,
        "address": "New York, NY, USA",
        "active": true
      },
      "1USAALB": {
        "description": "State University of New York, Albany, NY",
        "latitude": 42.6850273,
        "longitude": -73.8247903,
        "address": "1400 Washington Ave, Albany, NY 12222, USA",
        "active": true
      },
      "1USAALS": {
        "description": "Alabama State University, Montgomery, AL",
        "latitude": 32.3629762,
        "longitude": -86.2939803,
        "address": "915 S Jackson St, Montgomery, AL 36104, USA",
        "active": true
      },
      "1USAAMH": {
        "description": "Amherst College, Amherst, MA",
        "latitude": 42.3709104,
        "longitude": -72.5170028,
        "address": "Amherst, MA 01002, USA",
        "active": true
      },
      "1USAAMW": {
        "description": "American Universit, Washington, DC",
        "latitude": 38.9380155,
        "longitude": -77.088922,
        "address": "4400 Massachusetts Ave NW, Washington, DC 20016, USA",
        "active": true
      },
      "1USAANA": {
        "description": "U.S. Naval Academy, Annapolis, MD",
        "latitude": 38.98364830000001,
        "longitude": -76.48233499999999,
        "address": "Naval Academy, Annapolis, MD, USA",
        "active": true
      },
      "1USAAND": {
        "description": "Andrews University , Berrien Springs, MI",
        "latitude": 41.9647534,
        "longitude": -86.359918,
        "address": "8975 Old 31, Berrien Springs, MI 49104, USA",
        "active": true
      },
      "1USAANL": {
        "description": "Argonne National Laboratory, Argonne, IL",
        "latitude": 41.7182827,
        "longitude": -87.97886969999999,
        "address": "9700 S Cass Ave, Lemont, IL 60439, USA",
        "active": true
      },
      "1USAAPD": {
        "description": "Atomic Power Development Associates, Detroit, MI",
        "latitude": 42.331427,
        "longitude": -83.0457538,
        "address": "Detroit, MI, USA",
        "active": true
      },
      "1USAARC": {
        "description": "Atlantic Richfield Hanford Company, Richland, WA",
        "latitude": 46.3239549,
        "longitude": -119.2716041,
        "address": "Hanford St, Richland, WA 99354, USA",
        "active": true
      },
      "1USAARF": {
        "description": "Armour Research Foundation, Chicago, IL",
        "latitude": 41.8924415,
        "longitude": -87.6655461,
        "address": "N Armour St, Chicago, IL 60642, USA",
        "active": false
      },
      "1USAARK": {
        "description": "University of Arkansas, Fayetteville, AR",
        "latitude": 36.0686895,
        "longitude": -94.1748471,
        "address": "Fayetteville, AR 72701, USA",
        "active": true
      },
      "1USAARL": {
        "description": "Aerospace Research Labs, Wright-Patterson A.F. Base, OH",
        "latitude": 39.8137298,
        "longitude": -84.05374479999999,
        "address": "Wright-Patterson AFB, OH, USA",
        "active": true
      },
      "1USAARS": {
        "description": "Aerospace Research Labs.",
        "latitude": 38.0365669,
        "longitude": -78.52246869999999,
        "address": "570 Edgemont Rd, Charlottesville, VA 22903, USA",
        "active": false
      },
      "1USAAST": {
        "description": "Astra Inc., Raleigh, NC",
        "latitude": 35.7795897,
        "longitude": -78.6381787,
        "address": "Raleigh, NC, USA",
        "active": true
      },
      "1USAASU": {
        "description": "Arizona State University, Tempe, AZ",
        "latitude": 33.4231685,
        "longitude": -111.9264972,
        "address": "Tempe, AZ 85281, USA",
        "active": true
      },
      "1USAAUB": {
        "description": "Auburn University, Auburn, AL",
        "latitude": 32.5980549,
        "longitude": -85.4942667,
        "address": "Auburn, AL 36849, USA",
        "active": true
      },
      "1USAAUI": {
        "description": "University of Illinois, Urbana-Champaign, IL",
        "latitude": 40.1019523,
        "longitude": -88.2271615,
        "address": "Champaign, IL, USA",
        "active": false
      },
      "1USAB+W": {
        "description": "Babcock and Wilcox, Lynchburgh, VA",
        "latitude": 37.4137536,
        "longitude": -79.14224639999999,
        "address": "Lynchburg, VA, USA",
        "active": true
      },
      "1USABAR": {
        "description": "Bartol Research Foundation, Swarthmore, PA",
        "latitude": 39.9020565,
        "longitude": -75.3499123,
        "address": "Swarthmore, PA 19081, USA",
        "active": true
      },
      "1USABAT": {
        "description": "Battelle Memorial Institute, Columbus, OH",
        "latitude": 40.0097797,
        "longitude": -83.1207106,
        "address": "2779 Westbelt Dr, Columbus, OH 43228, USA",
        "active": true
      },
      "1USABCC": {
        "description": "J.T.Baker Chemical Company, Phillipsburg, NJ",
        "latitude": 40.7019769,
        "longitude": -75.1966161,
        "address": "Jt Baker Way, Phillipsburg, NJ 08865, USA",
        "active": true
      },
      "1USABCM": {
        "description": "Boston College, Chestnut Hill, MA",
        "latitude": 42.3355488,
        "longitude": -71.16849450000001,
        "address": "140 Commonwealth Ave, Chestnut Hill, MA 02467, USA",
        "active": true
      },
      "1USABEL": {
        "description": "AT&T Bell Laboratories, Murray Hill, NJ",
        "latitude": "",
        "longitude": "",
        "address": "",
        "active": true
      },
      "1USABET": {
        "description": "Bettis Atomic Power Laboratory , Westinghouse, Pittsburgh,PA",
        "latitude": 40.3581838,
        "longitude": -79.8964876,
        "address": "814 Pittsburgh McKeesport Blvd, West Mifflin, PA 15122, USA",
        "active": true
      },
      "1USABLN": {
        "description": "Brooklyn College of the C.U.N.Y., Brooklyn, NY",
        "latitude": 40.6311257,
        "longitude": -73.9523802,
        "address": "2900 Bedford Ave, Brooklyn, NY 11210, USA",
        "active": true
      },
      "1USABNL": {
        "description": "Brookhaven National Laboratory, Upton, NY",
        "latitude": 40.8642635,
        "longitude": -72.87516839999999,
        "address": "98 Rochester St, Upton, NY 11973, USA",
        "active": true
      },
      "1USABNW": {
        "description": "Pacific Northwest Laboratories, Richland, WA",
        "latitude": 46.3451404,
        "longitude": -119.2792298,
        "address": "902 Battelle Blvd, Richland, WA 99354, USA",
        "active": true
      },
      "1USABOE": {
        "description": "Boeing Scientific Research Labs, Seattle, WA",
        "latitude": 47.6062095,
        "longitude": -122.3320708,
        "address": "Seattle, WA, USA",
        "active": true
      },
      "1USABRK": {
        "description": "Lawrence Berkeley National Laboratory, Berkeley, CA",
        "latitude": 37.8759016,
        "longitude": -122.2500545,
        "address": "1 Cyclotron Rd, Berkeley, CA 94720, USA",
        "active": true
      },
      "1USABRL": {
        "description": "Ballistic Research Labs, Aberdeen Proving Grounds, MD",
        "latitude": 39.4632824,
        "longitude": -76.1203982,
        "address": "Aberdeen Proving Ground, MD 21005, USA",
        "active": true
      },
      "1USABRN": {
        "description": "Brown University, Providence, RI",
        "latitude": 41.8267718,
        "longitude": -71.4025482,
        "address": "Providence, RI 02912, USA",
        "active": true
      },
      "1USABST": {
        "description": "Boston University, Boston, MA",
        "latitude": 42.3504997,
        "longitude": -71.1053991,
        "address": "Boston, MA 02215, USA",
        "active": true
      },
      "1USABSU": {
        "description": "Ball State University , Muncie, IN",
        "latitude": 40.2024944,
        "longitude": -85.40582409999999,
        "address": "2000 W University Ave, Muncie, IN 47306, USA",
        "active": true
      },
      "1USABYU": {
        "description": "Brigham Young University, Provo, UT",
        "latitude": 40.2518435,
        "longitude": -111.6493156,
        "address": "Provo, UT 84602, USA",
        "active": true
      },
      "1USACAL": {
        "description": "California Institute of Technology, Pasadena, CA",
        "latitude": 34.1376576,
        "longitude": -118.125269,
        "address": "1200 E California Blvd, Pasadena, CA 91125, USA",
        "active": true
      },
      "1USACAR": {
        "description": "Carnegie Institute of Technology, Pittsburgh, PA",
        "latitude": 40.4419134,
        "longitude": -79.9467008,
        "address": "5000 Forbes Ave, Pittsburgh, PA 15213, USA",
        "active": true
      },
      "1USACAW": {
        "description": "Carnegie Institute, Washington, DC",
        "latitude": 38.9587952,
        "longitude": -77.06277349999999,
        "address": "5251 Broad Branch Rd NW, Washington, DC 20015, USA",
        "active": true
      },
      "1USACBE": {
        "description": "Combustion Engineering, Windsor, CN",
        "latitude": 41.8525984,
        "longitude": -72.64370219999999,
        "address": "Windsor, CT, USA",
        "active": true
      },
      "1USACBF": {
        "description": "Thomas Jefferson Nat'l Accelerator Facility , Newport News, VA",
        "latitude": 37.0870821,
        "longitude": -76.4730122,
        "address": "Newport News, VA, USA",
        "active": true
      },
      "1USACFN": {
        "description": "California State University, Northridge, CA",
        "latitude": 34.2406756,
        "longitude": -118.5300196,
        "address": "18111 Nordhoff St, Northridge, CA 91330, USA",
        "active": true
      },
      "1USACHI": {
        "description": "University of Chicago, IL",
        "latitude": 41.8781136,
        "longitude": -87.6297982,
        "address": "Chicago, IL, USA",
        "active": true
      },
      "1USACLA": {
        "description": "University of California, Los Angeles, CA",
        "latitude": 34.0699182,
        "longitude": -118.4438495,
        "address": "Los Angeles, CA 90095, USA",
        "active": true
      },
      "1USACLI": {
        "description": "Clinton Labs, Knoxville, TN",
        "latitude": 36.025164,
        "longitude": -84.0601456,
        "address": "Clinton Hwy, Knoxville, TN, USA",
        "active": true
      },
      "1USACLK": {
        "description": "Clark University, Worcester, MA",
        "latitude": 42.2520353,
        "longitude": -71.8245381,
        "address": "950 Main St, Worcester, MA 01610, USA",
        "active": true
      },
      "1USACLS": {
        "description": "Cleveland State University, Cleveland, OH",
        "latitude": 41.5027643,
        "longitude": -81.67442299999999,
        "address": "2121 Euclid Ave, Cleveland, OH 44115, USA",
        "active": true
      },
      "1USACLU": {
        "description": "University of Colorado, Boulder, CO",
        "latitude": 40.0073499,
        "longitude": -105.2659871,
        "address": "Boulder, CO 80309, USA",
        "active": true
      },
      "1USACMG": {
        "description": "Central Michigan University, Mt.Pleasant, MI",
        "latitude": 43.5906616,
        "longitude": -84.7755904,
        "address": "1200 S Franklin St, Mt Pleasant, MI 48859, USA",
        "active": true
      },
      "1USACMU": {
        "description": "Carnegie-Mellon University, Pittsburgh, PA",
        "latitude": 40.4432027,
        "longitude": -79.9428499,
        "address": "5000 Forbes Ave, Pittsburgh, PA 15213, USA",
        "active": false
      },
      "1USACOL": {
        "description": "Columbia University, New York, NY",
        "latitude": 40.8075355,
        "longitude": -73.9625727,
        "address": "116th and Broadway, New York, NY 10027, USA",
        "active": true
      },
      "1USACON": {
        "description": "Convair, San Diego, CA",
        "latitude": 32.715738,
        "longitude": -117.1610838,
        "address": "San Diego, CA, USA",
        "active": true
      },
      "1USACOR": {
        "description": "Cornell University, Ithaca, NY",
        "latitude": 42.4534492,
        "longitude": -76.4735027,
        "address": "Ithaca, NY 14850, USA",
        "active": true
      },
      "1USACOU": {
        "description": "Courant Institute of Mathematical Sciences, New York, NY",
        "latitude": 40.7286908,
        "longitude": -73.99565969999999,
        "address": "251 Mercer St, New York, NY 10012, USA",
        "active": true
      },
      "1USACRD": {
        "description": "California Research and Development Co., Livermore,CA",
        "latitude": 37.6818688,
        "longitude": -121.7684732,
        "address": "Livermore, CA, USA",
        "active": true
      },
      "1USACSD": {
        "description": "University of California, San Diego, CA",
        "latitude": 32.8800604,
        "longitude": -117.2340135,
        "address": "9500 Gilman Dr, La Jolla, CA 92093, USA",
        "active": true
      },
      "1USACSE": {
        "description": "Case Western Reserve University, Cleveland, OH",
        "latitude": 41.5043413,
        "longitude": -81.6083838,
        "address": "10900 Euclid Ave, Cleveland, OH 44106, USA",
        "active": true
      },
      "1USACSI": {
        "description": "Columbia Scientific Industries Corp., Lafayette, LA",
        "latitude": 30.2240897,
        "longitude": -92.0198427,
        "address": "Lafayette, LA, USA",
        "active": true
      },
      "1USACSM": {
        "description": "Colorado School of Mines, Golden, CO",
        "latitude": 39.7510475,
        "longitude": -105.2225708,
        "address": "1500 Illinois St, Golden, CO 80401, USA",
        "active": true
      },
      "1USACSS": {
        "description": "California State University, Sacramento, CA",
        "latitude": 38.5815719,
        "longitude": -121.4943996,
        "address": "Sacramento, CA, USA",
        "active": true
      },
      "1USACST": {
        "description": "California State University, Los Angeles, CA",
        "latitude": 34.0663797,
        "longitude": -118.1684782,
        "address": "5151 State University Dr, Los Angeles, CA 90032, USA",
        "active": true
      },
      "1USACSU": {
        "description": "Colorado State University, Fort Collins, CO",
        "latitude": 40.5729432,
        "longitude": -105.0848391,
        "address": "Fort Collins, CO 80523, USA",
        "active": true
      },
      "1USACUA": {
        "description": "Catholic University of America, Washington, DC",
        "latitude": 38.9368811,
        "longitude": -76.99869199999999,
        "address": "620 Michigan Ave NE, Washington, DC 20064, USA",
        "active": true
      },
      "1USACUW": {
        "description": "Curtiss-Wright Corp., Quehanna, PA",
        "latitude": 41.27422749999999,
        "longitude": -78.2566774,
        "address": "Quehanna Wild Area, Benezette Township, PA 15868, USA",
        "active": true
      },
      "1USACWR": {
        "description": "Curtiss-Wright Corp., Quehanna, Pa",
        "latitude": 41.27422749999999,
        "longitude": -78.2566774,
        "address": "Quehanna Wild Area, Benezette Township, PA 15868, USA",
        "active": false
      },
      "1USADAV": {
        "description": "University of California, Davis, CA",
        "latitude": 38.5382322,
        "longitude": -121.7617125,
        "address": "1 Shields Ave, Davis, CA 95616, USA",
        "active": true
      },
      "1USADKE": {
        "description": "Duke University, Durham, NC",
        "latitude": 36.0014258,
        "longitude": -78.9382286,
        "address": "Durham, NC 27708, USA",
        "active": true
      },
      "1USADLS": {
        "description": "University of Dallas, Irving, TX",
        "latitude": 32.8449929,
        "longitude": -96.9186842,
        "address": "1845 E Northgate Dr, Irving, TX 75062, USA",
        "active": true
      },
      "1USADNS": {
        "description": "Denison University, Granville, OH",
        "latitude": 40.0735236,
        "longitude": -82.52272730000001,
        "address": "100 W College St, Granville, OH 43023, USA",
        "active": true
      },
      "1USADOD": {
        "description": "Department of Defense, DASA, Washington, DC",
        "latitude": 38.9071923,
        "longitude": -77.0368707,
        "address": "Washington, DC, USA",
        "active": true
      },
      "1USADOE": {
        "description": "Department of Energy, Washington, DC",
        "latitude": 38.9071923,
        "longitude": -77.0368707,
        "address": "Washington, DC, USA",
        "active": true
      },
      "1USADOF": {
        "description": "Diamond Ordnance Fuse Laboratory",
        "latitude": 37.09024,
        "longitude": -95.712891,
        "address": "United States",
        "active": true
      },
      "1USADRF": {
        "description": "Dow Chemical Co., Rocky Flats, CO",
        "latitude": 39.5500507,
        "longitude": -105.7820674,
        "address": "Colorado, USA",
        "active": true
      },
      "1USAEGG": {
        "description": "E G+G Energy Measurements, Santa Barbara, CA",
        "latitude": 34.4208305,
        "longitude": -119.6981901,
        "address": "Santa Barbara, CA, USA",
        "active": true
      },
      "1USAEMY": {
        "description": "Emory University, Atlanta, GA",
        "latitude": 33.7971368,
        "longitude": -84.32224,
        "address": "201 Dowman Dr, Atlanta, GA 30322, USA",
        "active": true
      },
      "1USAERD": {
        "description": "U.S. Energy Research & Development Adm., Washington, DC",
        "latitude": 37.09024,
        "longitude": -95.712891,
        "address": "United States",
        "active": true
      },
      "1USAETS": {
        "description": "East Texas State University",
        "latitude": 33.2406645,
        "longitude": -95.91041489999999,
        "address": "2200 Campbell St, Commerce, TX 75428, USA",
        "active": true
      },
      "1USAFLA": {
        "description": "University of Florida, Gainesville, FL",
        "latitude": 29.644591,
        "longitude": -82.35348400000001,
        "address": "Gainesville, FL 32611, USA",
        "active": true
      },
      "1USAFSU": {
        "description": "Florida State University, Tallahassee, FL",
        "latitude": 30.4418778,
        "longitude": -84.2984889,
        "address": "600 W College Ave, Tallahassee, FL 32306, USA",
        "active": true
      },
      "1USAGA": {
        "description": "Gulf Energy and Environmental Systems, San Diego, CA",
        "latitude": 32.715738,
        "longitude": -117.1610838,
        "address": "San Diego, CA, USA",
        "active": true
      },
      "1USAGDT": {
        "description": "General Dynamics, Fort Worth, TX",
        "latitude": 32.7554883,
        "longitude": -97.3307658,
        "address": "Fort Worth, TX 76102, USA",
        "active": true
      },
      "1USAGEA": {
        "description": "General Electric, Aircraft Nuclear Prop.Department , Ohio",
        "latitude": 40.4172871,
        "longitude": -82.90712300000001,
        "address": "Ohio, USA",
        "active": true
      },
      "1USAGEB": {
        "description": "General Electric Breeder React.Dev.Op., Sunnyvale, CA",
        "latitude": 37.36883,
        "longitude": -122.0363496,
        "address": "Sunnyvale, CA, USA",
        "active": true
      },
      "1USAGEC": {
        "description": "General Electric Company, San Jose, CA",
        "latitude": 37.33874,
        "longitude": -121.8852525,
        "address": "San Jose, CA, USA",
        "active": true
      },
      "1USAGEF": {
        "description": "General Electric, Space Science Laboratory , PA",
        "latitude": 41.2033216,
        "longitude": -77.1945247,
        "address": "Pennsylvania, USA",
        "active": true
      },
      "1USAGEN": {
        "description": "General Electric, Nuclear Materials, PA",
        "latitude": 41.2033216,
        "longitude": -77.1945247,
        "address": "Pennsylvania, USA",
        "active": true
      },
      "1USAGEO": {
        "description": "University of Georgia, Athens, GA",
        "latitude": 33.9566656,
        "longitude": -83.375192,
        "address": "University of Georgia Chapel, Herty Dr, Athens, GA 30602, USA",
        "active": true
      },
      "1USAGEP": {
        "description": "General Electric, Nucleonics Laboratory , Pleasanton, CA",
        "latitude": 37.6604484,
        "longitude": -121.8757968,
        "address": "Pleasanton, CA, USA",
        "active": true
      },
      "1USAGES": {
        "description": "General Electric, Schenectady, NY",
        "latitude": 42.8098815,
        "longitude": -73.953651,
        "address": "Old River Rd, Schenectady, NY 12306, USA",
        "active": true
      },
      "1USAGEV": {
        "description": "General Electric, Vallecitos Atomic Laboratory , CA",
        "latitude": 38.0901992,
        "longitude": -120.4735322,
        "address": "Vallecito, CA, USA",
        "active": true
      },
      "1USAGGA": {
        "description": "Gulf General Atomic, San Diego, CA",
        "latitude": 32.8938719,
        "longitude": -117.2360859,
        "address": "3550 General Atomics Ct, San Diego, CA 92121, USA",
        "active": true
      },
      "1USAGIT": {
        "description": "Georgia Institute of Technology, Atlanta, GA",
        "latitude": 33.7783046,
        "longitude": -84.3991657,
        "address": "Georgia Tech, Atlanta, GA 30332, USA",
        "active": true
      },
      "1USAGRT": {
        "description": "Gulf Radiation Technology, San Diego, CA",
        "latitude": 33.0093508,
        "longitude": -117.0919349,
        "address": "Technology Dr, San Diego, CA 92127, USA",
        "active": true
      },
      "1USAGSF": {
        "description": "Nasa Goddard Space Flight Center, Greenbelt, MD",
        "latitude": 38.99495,
        "longitude": -76.85234400000002,
        "address": "8800 Greenbelt Rd, Greenbelt, MD 20771, USA",
        "active": true
      },
      "1USAGSU": {
        "description": "Georgia State University, Atlanta, GA",
        "latitude": 33.753068,
        "longitude": -84.38528190000001,
        "address": "Atlanta, GA 30302, USA",
        "active": true
      },
      "1USAGWU": {
        "description": "George Washington University, Washington, DC",
        "latitude": 38.8991756,
        "longitude": -77.0470916,
        "address": "George Washington University, Washington, DC, USA",
        "active": true
      },
      "1USAHAN": {
        "description": "Hanford Atomic Products, Richland, WA",
        "latitude": 46.3239549,
        "longitude": -119.2716041,
        "address": "Hanford St, Richland, WA 99354, USA",
        "active": false
      },
      "1USAHED": {
        "description": "Hanford Engineering Development Laboratory , Richland, WA",
        "latitude": 46.3254159,
        "longitude": -119.2674568,
        "address": "450 Hanford St, Richland, WA 99354, USA",
        "active": true
      },
      "1USAHNS": {
        "description": "Hazelton Nuclear Science Corp., Palo Alto, CA",
        "latitude": 37.4418834,
        "longitude": -122.1430195,
        "address": "Palo Alto, CA, USA",
        "active": true
      },
      "1USAHOU": {
        "description": "University of Houston, Houston, TX",
        "latitude": 29.7199489,
        "longitude": -95.3422334,
        "address": "Houston, TX, USA",
        "active": true
      },
      "1USAHPE": {
        "description": "Hope College, Holland, MI",
        "latitude": 42.7875308,
        "longitude": -86.1026663,
        "address": "141 E 12th St, Holland, MI 49423, USA",
        "active": true
      },
      "1USAHRV": {
        "description": "Harvard University, Cambridge, MA",
        "latitude": 42.3744368,
        "longitude": -71.1182488,
        "address": "Massachusetts Hall, Cambridge, MA 02138, USA",
        "active": true
      },
      "1USAHSL": {
        "description": "U.S.A.E.C. Health and Safety Laboratory , NY",
        "latitude": 43.2994285,
        "longitude": -74.21793260000001,
        "address": "New York, USA",
        "active": true
      },
      "1USAIAP": {
        "description": "Institute for Advanced Studies, Princeton, NJ",
        "latitude": 40.3572976,
        "longitude": -74.6672226,
        "address": "Princeton, NJ, USA",
        "active": true
      },
      "1USAIBM": {
        "description": "I B M Research Laboratory , San Jose, CA",
        "latitude": 37.33874,
        "longitude": -121.8852525,
        "address": "San Jose, CA, USA",
        "active": true
      },
      "1USAIIT": {
        "description": "Illinois Institute of Technology, Chicago, IL",
        "latitude": 41.8348731,
        "longitude": -87.6270059,
        "address": "10 W 35th St, Chicago, IL 60616, USA",
        "active": true
      },
      "1USAINL": {
        "description": "Idaho National Laboratory, Idaho Falls, ID",
        "latitude": 43.51948489999999,
        "longitude": -112.0459325,
        "address": "1955 N Fremont Ave, Idaho Falls, ID 83415, USA",
        "active": true
      },
      "1USAINU": {
        "description": "Indiana University, Bloomington, IN",
        "latitude": 39.1682449,
        "longitude": -86.52300729999999,
        "address": "107 S Indiana Ave, Bloomington, IN 47405, USA",
        "active": true
      },
      "1USAIOW": {
        "description": "University of Iowa, Iowa City, IA",
        "latitude": 41.66270780000001,
        "longitude": -91.5549771,
        "address": "Iowa City, IA 52242, USA",
        "active": true
      },
      "1USAIRT": {
        "description": "Intelcom Radiation Technology, San Diego, CA",
        "latitude": 33.0093508,
        "longitude": -117.0919349,
        "address": "Technology Dr, San Diego, CA 92127, USA",
        "active": true
      },
      "1USAIRV": {
        "description": "University of California, Irvine, CA",
        "latitude": 33.6423814,
        "longitude": -117.8416747,
        "address": "Irvine, CA 92697, USA",
        "active": true
      },
      "1USAISB": {
        "description": "Indiana University, South Bend, IN",
        "latitude": 41.6617986,
        "longitude": -86.22041809999999,
        "address": "1700 E Mishawaka Ave, South Bend, IN 46615, USA",
        "active": true
      },
      "1USAISU": {
        "description": "Idaho State University, Pocatello, ID",
        "latitude": 42.8627836,
        "longitude": -112.429762,
        "address": "921 S 8th Ave, Pocatello, ID 83209, USA",
        "active": true
      },
      "1USAJHU": {
        "description": "Johns Hopkins University, Baltimore, MD",
        "latitude": 39.3299013,
        "longitude": -76.6205177,
        "address": "Baltimore, MD 21218, USA",
        "active": true
      },
      "1USAKAN": {
        "description": "University of Kansas, Lawrence, KS",
        "latitude": 38.9543439,
        "longitude": -95.2557961,
        "address": "1450 Jayhawk Blvd, Lawrence, KS 66045, USA",
        "active": true
      },
      "1USAKAP": {
        "description": "Knolls Atomic Power Laboratory, Schenectady, NY",
        "latitude": 42.8214109,
        "longitude": -73.8680461,
        "address": "2401 River Rd, Niskayuna, NY 12309, USA",
        "active": true
      },
      "1USAKNT": {
        "description": "Kent State University, Kent, OH",
        "latitude": 41.1497945,
        "longitude": -81.34331590000001,
        "address": "800 E Summit St, Kent, OH 44240, USA",
        "active": true
      },
      "1USAKSU": {
        "description": "Kansas State University, Manhattan, KS",
        "latitude": 39.1974437,
        "longitude": -96.5847249,
        "address": "Manhattan, KS 66506, USA",
        "active": true
      },
      "1USAKTY": {
        "description": "University of Kentucky, Lexington, KY",
        "latitude": 38.0306511,
        "longitude": -84.5039697,
        "address": "Lexington, KY 40506, USA",
        "active": true
      },
      "1USALAN": {
        "description": "Langley Research Center, NASA Langley Station, VA",
        "latitude": 37.0862472,
        "longitude": -76.3808799,
        "address": "1 Nasa Dr, Hampton, VA 23666, USA",
        "active": true
      },
      "1USALAS": {
        "description": "Los Alamos National Laboratory, NM",
        "latitude": 35.8800364,
        "longitude": -106.3031138,
        "address": "Los Alamos, NM 87544, USA",
        "active": true
      },
      "1USALBL": {
        "description": "Lawrence Berkeley Lab, Berkeley, CA",
        "latitude": 37.8759016,
        "longitude": -122.2500545,
        "address": "1 Cyclotron Rd, Berkeley, CA 94720, USA",
        "active": false
      },
      "1USALMS": {
        "description": "Lockheed Missiles and Space Division , Palo Alto, CA",
        "latitude": 37.4418834,
        "longitude": -122.1430195,
        "address": "Palo Alto, CA, USA",
        "active": true
      },
      "1USALOK": {
        "description": "Lockheed Aircraft Corp., Sunnyvale, CA",
        "latitude": 37.36883,
        "longitude": -122.0363496,
        "address": "Sunnyvale, CA, USA",
        "active": true
      },
      "1USALOW": {
        "description": "Lowell Technological Institute, Lowell, MA",
        "latitude": 42.6334247,
        "longitude": -71.31617179999999,
        "address": "Lowell, MA, USA",
        "active": false
      },
      "1USALOY": {
        "description": "Loyola University, Los Angeles, CA",
        "latitude": 33.9614858,
        "longitude": -118.4167041,
        "address": "Loyola Blvd, Los Angeles, CA, USA",
        "active": true
      },
      "1USALRC": {
        "description": "NASA-Lewis Research Center, Cleveland, OH",
        "latitude": 41.4161008,
        "longitude": -81.858251,
        "address": "21000 Brookpark Rd, Cleveland, OH 44135, USA",
        "active": true
      },
      "1USALRL": {
        "description": "Lawrence Livermore National Laboratory, Livermore, CA",
        "latitude": 37.6869634,
        "longitude": -121.7058752,
        "address": "7000 East Ave, Livermore, CA 94550, USA",
        "active": true
      },
      "1USALSU": {
        "description": "Louisiana State University, Baton Rouge, LA",
        "latitude": 30.4132579,
        "longitude": -91.1800023,
        "address": "Baton Rouge, LA 70803, USA",
        "active": true
      },
      "1USALTI": {
        "description": "University of Massachusetts at Lowell, MA",
        "latitude": 42.6334247,
        "longitude": -71.31617179999999,
        "address": "Lowell, MA, USA",
        "active": true
      },
      "1USALVL": {
        "description": "University of Louisville, Louisville, KY",
        "latitude": 38.2122761,
        "longitude": -85.75850229999999,
        "address": "2301 S 3rd St, Louisville, KY 40292, USA",
        "active": true
      },
      "1USAMAG": {
        "description": "MAGI, Elmsford, NY",
        "latitude": 41.0550969,
        "longitude": -73.8201337,
        "address": "Elmsford, NY, USA",
        "active": true
      },
      "1USAMAR": {
        "description": "Marquette University, Milwaukee, WI",
        "latitude": 43.0386955,
        "longitude": -87.93101399999999,
        "address": "1250 W Wisconsin Ave, Milwaukee, WI 53233, USA",
        "active": true
      },
      "1USAMGH": {
        "description": "Massachusetts General Hospital, Boston, MA",
        "latitude": 42.3625677,
        "longitude": -71.0687661,
        "address": "55 Fruit St, Boston, MA 02114, USA",
        "active": true
      },
      "1USAMGT": {
        "description": "Michigan Technological University, Houghton, MI",
        "latitude": 47.115026,
        "longitude": -88.5452004,
        "address": "1400 Townsend Dr, Houghton, MI 49931, USA",
        "active": true
      },
      "1USAMHD": {
        "description": "University of Michigan, Dearborn, MI",
        "latitude": 42.319423,
        "longitude": -83.230688,
        "address": "University of Michigan, Dearborn, MI 48128, USA",
        "active": true
      },
      "1USAMHG": {
        "description": "University of Michigan, Ann Arbor, MI",
        "latitude": 42.277145,
        "longitude": -83.7382071,
        "address": "500 S State St, Ann Arbor, MI 48109, USA",
        "active": true
      },
      "1USAMIN": {
        "description": "University of Minnesota, Minneapolis, MN",
        "latitude": 44.97399,
        "longitude": -93.2277285,
        "address": "Minneapolis, MN 55455, USA",
        "active": true
      },
      "1USAMIS": {
        "description": "University of Missouri, Columbia, MO",
        "latitude": 38.9403808,
        "longitude": -92.32773750000001,
        "address": "Columbia, MO 65211, USA",
        "active": true
      },
      "1USAMIT": {
        "description": "Massachusetts Institute of Technology, Cambridge, MA",
        "latitude": 42.360091,
        "longitude": -71.09416,
        "address": "77 Massachusetts Ave, Cambridge, MA 02139, USA",
        "active": true
      },
      "1USAMIU": {
        "description": "Miami University, Oxford, OH",
        "latitude": 39.5087485,
        "longitude": -84.73449149999999,
        "address": "501 E High St, Oxford, OH 45056, USA",
        "active": true
      },
      "1USAMND": {
        "description": "Mound Laboratory, Miamisburg, OH",
        "latitude": 39.6273846,
        "longitude": -84.2793756,
        "address": "Miamisburg Mound Park, 900 Mound Rd, Miamisburg, OH 45342, USA",
        "active": true
      },
      "1USAMRD": {
        "description": "University of Maryland, College Park, MD",
        "latitude": 38.9869183,
        "longitude": -76.9425543,
        "address": "College Park, MD 20742, USA",
        "active": false
      },
      "1USAMRY": {
        "description": "University of Maryland, College Park, MD",
        "latitude": 38.9869183,
        "longitude": -76.9425543,
        "address": "College Park, MD 20742, USA",
        "active": true
      },
      "1USAMSM": {
        "description": "Mount Sinai Medical Center, Miami Beach, FL",
        "latitude": 25.8144083,
        "longitude": -80.1389361,
        "address": "Sulivan Dr, Miami Beach, FL 33140, USA",
        "active": true
      },
      "1USAMSS": {
        "description": "Mississippi State University, Mississippi State, MS",
        "latitude": 33.4551742,
        "longitude": -88.79437659999999,
        "address": "75 B. S. Hood Rd, Mississippi State, MS 39762, USA",
        "active": true
      },
      "1USAMST": {
        "description": "Mississippi State University, Mississippi State, MS",
        "latitude": 33.4551742,
        "longitude": -88.79437659999999,
        "address": "75 B. S. Hood Rd, Mississippi State, MS 39762, USA",
        "active": false
      },
      "1USAMSU": {
        "description": "Michigan State University, East Lansing, MI",
        "latitude": 42.7297899,
        "longitude": -84.4864147,
        "address": "426 Auditorium Rd, East Lansing, MI 48824, USA",
        "active": true
      },
      "1USAMTR": {
        "description": "Idaho Nuclear Corp., Idaho Falls, ID",
        "latitude": 43.49266069999999,
        "longitude": -112.0407584,
        "address": "Idaho Falls, ID, USA",
        "active": true
      },
      "1USAMTS": {
        "description": "Middle Tennessee State University, Murfreesboro, TN",
        "latitude": 35.8486229,
        "longitude": -86.36691549999999,
        "address": "1301 E Main St, Murfreesboro, TN 37132, USA",
        "active": true
      },
      "1USAMTU": {
        "description": "Montana State University, Missoula, MT",
        "latitude": 46.8721284,
        "longitude": -113.9940314,
        "address": "Missoula, MT, USA",
        "active": true
      },
      "1USAMUR": {
        "description": "Murray State University, Murray, KY",
        "latitude": 36.616251,
        "longitude": -88.3209372,
        "address": "1375 Chestnut St, Murray, KY 42071, USA",
        "active": true
      },
      "1USANAL": {
        "description": "Fermi National Laboratory, Batavia, IL",
        "latitude": 41.8500284,
        "longitude": -88.3125738,
        "address": "Batavia, IL, USA",
        "active": true
      },
      "1USANAS": {
        "description": "NASA, Washington, DC",
        "latitude": 38.9071923,
        "longitude": -77.0368707,
        "address": "Washington, DC, USA",
        "active": true
      },
      "1USANBS": {
        "description": "National Bureau of Standards, Washington, DC",
        "latitude": 38.9071923,
        "longitude": -77.0368707,
        "address": "Washington, DC, USA",
        "active": false
      },
      "1USANCA": {
        "description": "University of North Carolina, Chapel Hill, NC",
        "latitude": 35.9049122,
        "longitude": -79.0469134,
        "address": "Chapel Hill, NC, USA",
        "active": true
      },
      "1USANCC": {
        "description": "North Carolina Central University, Durham, NC",
        "latitude": 35.97298200000001,
        "longitude": -78.8962889,
        "address": "North Carolina Central University, Durham, NC, USA",
        "active": true
      },
      "1USANCS": {
        "description": "North Carolina State University, Raleigh, NC",
        "latitude": 35.7850744,
        "longitude": -78.6812824,
        "address": "Raleigh, NC 27695, USA",
        "active": true
      },
      "1USANDA": {
        "description": "Nuclear Development Associates Inc.",
        "latitude": 37.09024,
        "longitude": -95.712891,
        "address": "United States",
        "active": true
      },
      "1USANDL": {
        "description": "U.S. Army Nuclear Defence Laboratory , Edgewood Arsenal, MD",
        "latitude": 39.4187194,
        "longitude": -76.2944016,
        "address": "Edgewood, MD, USA",
        "active": true
      },
      "1USANEB": {
        "description": "North Eastern University, Boston, MA",
        "latitude": 42.339904,
        "longitude": -71.0898892,
        "address": "360 Huntington Ave, Boston, MA 02115, USA",
        "active": true
      },
      "1USANEL": {
        "description": "U.S. Nuclear Effects Laboratory , Edgewood Arsenal, MD",
        "latitude": 39.4187194,
        "longitude": -76.2944016,
        "address": "Edgewood, MD, USA",
        "active": true
      },
      "1USANGC": {
        "description": "North Georgia College, Dahlonega, NC",
        "latitude": 34.5261465,
        "longitude": -83.9843953,
        "address": "Dahlonega, GA 30533, USA",
        "active": true
      },
      "1USANIH": {
        "description": "National Institutes of Health, Bethesda, MD",
        "latitude": 38.984652,
        "longitude": -77.0947092,
        "address": "Bethesda, MD, USA",
        "active": true
      },
      "1USANIS": {
        "description": "National Institute of Standards & Techn., Gaithersburg, MD",
        "latitude": "",
        "longitude": "",
        "address": "",
        "active": true
      },
      "1USANIU": {
        "description": "Northern Illinois University, Dekalb, IL",
        "latitude": 41.935056,
        "longitude": -88.7734365,
        "address": "1425 W Lincoln Hwy, DeKalb, IL 60115, USA",
        "active": true
      },
      "1USANMS": {
        "description": "New Mexico State University, Las Cruces, NM",
        "latitude": 32.2792887,
        "longitude": -106.7491391,
        "address": "1780 E University Ave, Las Cruces, NM 88003, USA",
        "active": true
      },
      "1USANMX": {
        "description": "University of New Mexico, Albuquerque, NM",
        "latitude": 35.0843187,
        "longitude": -106.6197812,
        "address": "Albuquerque, NM 87131, USA",
        "active": true
      },
      "1USANOL": {
        "description": "U.S. Navy Ordinance Laboratory , Silver Springs, MD",
        "latitude": 38.99066570000001,
        "longitude": -77.026088,
        "address": "Silver Spring, MD, USA",
        "active": true
      },
      "1USANOT": {
        "description": "University of Notre Dame, Notre Dame, IN",
        "latitude": 41.7001908,
        "longitude": -86.23793280000001,
        "address": "Notre Dame, IN 46556, USA",
        "active": true
      },
      "1USANRD": {
        "description": "U.S. Naval Radiolog. Defense Laboratory , San Francisco, CA",
        "latitude": 37.8217644,
        "longitude": -122.3691987,
        "address": "Building 442, 351 Avenue H, San Francisco, CA 94130, USA",
        "active": true
      },
      "1USANRL": {
        "description": "U.S. Naval Research Laboratory , Washington, DC",
        "latitude": 38.8228267,
        "longitude": -77.0178932,
        "address": "4555 Overlook Ave SW, Washington, DC 20375, USA",
        "active": true
      },
      "1USANTS": {
        "description": "North Texas State University, Denton, TX",
        "latitude": 33.207488,
        "longitude": -97.1525862,
        "address": "1155 Union Cir, Denton, TX 76205, USA",
        "active": true
      },
      "1USANWU": {
        "description": "Northwestern University, Evanston, IL",
        "latitude": 42.0564594,
        "longitude": -87.67526699999999,
        "address": "633 Clark St, Evanston, IL 60208, USA",
        "active": true
      },
      "1USANYB": {
        "description": "State University of New York, Buffalo, NY",
        "latitude": 42.88644679999999,
        "longitude": -78.8783689,
        "address": "Buffalo, NY, USA",
        "active": true
      },
      "1USANYU": {
        "description": "New York University, New York, NY",
        "latitude": 40.72951339999999,
        "longitude": -73.9964609,
        "address": "New York, NY 10012, USA",
        "active": true
      },
      "1USAOAU": {
        "description": "Oak Ridge Associated Universities, Oak Ridge, TN",
        "latitude": 36.0100402,
        "longitude": -84.2617721,
        "address": "100 Orau Way, Oak Ridge, TN 37830, USA",
        "active": true
      },
      "1USAOBR": {
        "description": "Oberlin College, Oberlin, OH",
        "latitude": 41.2958696,
        "longitude": -82.22108899999999,
        "address": "173 W Lorain St, Oberlin, OH 44074, USA",
        "active": true
      },
      "1USAOHO": {
        "description": "Ohio University, Athens, OH",
        "latitude": 39.324358,
        "longitude": -82.10138889999999,
        "address": "Athens, OH 45701, USA",
        "active": true
      },
      "1USAOKL": {
        "description": "University of Oklahoma, Norman, OK",
        "latitude": 35.1987162,
        "longitude": -97.4448963,
        "address": "660 Parrington Oval, Norman, OK 73019, USA",
        "active": true
      },
      "1USAORD": {
        "description": "Nuclear Data Project, ORNL, Oak Ridge, TN",
        "latitude": 35.9311679,
        "longitude": -84.3101161,
        "address": "5200, 1 Bethel Valley Rd, Oak Ridge, TN 37830, USA",
        "active": true
      },
      "1USAORE": {
        "description": "University of Oregon, Eugene, OR",
        "latitude": 44.0448302,
        "longitude": -123.0726055,
        "address": "1585 E 13th Ave, Eugene, OR 97403, USA",
        "active": true
      },
      "1USAORL": {
        "description": "Oak Ridge National Laboratory, Oak Ridge, TN",
        "latitude": 35.9311679,
        "longitude": -84.3101161,
        "address": "5200, 1 Bethel Valley Rd, Oak Ridge, TN 37830, USA",
        "active": true
      },
      "1USAORS": {
        "description": "Radiation Shielding Inf. Center, ORNL, Oak Ridge, TN",
        "latitude": 35.9311679,
        "longitude": -84.3101161,
        "address": "5200, 1 Bethel Valley Rd, Oak Ridge, TN 37830, USA",
        "active": true
      },
      "1USAORU": {
        "description": "Oregon State University, Corvallis, OR",
        "latitude": 44.5637806,
        "longitude": -123.2794442,
        "address": "Corvallis, OR 97331, USA",
        "active": true
      },
      "1USAOSU": {
        "description": "Ohio State University, Columbus, OH",
        "latitude": 40.0066723,
        "longitude": -83.0304546,
        "address": "281 W Lane Ave, Columbus, OH 43210, USA",
        "active": true
      },
      "1USAPCT": {
        "description": "Picatinny Arsenal, Dover, NJ",
        "latitude": 40.9170823,
        "longitude": -74.58051929999999,
        "address": "213 NJ-15, Wharton, NJ 07885, USA",
        "active": true
      },
      "1USAPEN": {
        "description": "University of Pennsylvania, Philadelphia, PA",
        "latitude": 39.9522188,
        "longitude": -75.1932137,
        "address": "Philadelphia, PA 19104, USA",
        "active": true
      },
      "1USAPPO": {
        "description": "Phillips Petroleum Co., Bartletsville, OK",
        "latitude": 36.7473114,
        "longitude": -95.98081789999999,
        "address": "Bartlesville, OK, USA",
        "active": true
      },
      "1USAPR": {
        "description": "Puerto Rico",
        "latitude": 18.220833,
        "longitude": -66.590149,
        "address": "Puerto Rico",
        "active": true
      },
      "1USAPRW": {
        "description": "Pratt + Whitney, Middletown, CT",
        "latitude": 41.54120899999999,
        "longitude": -72.5636267,
        "address": "400 Aircraft Rd, Middletown, CT 06457, USA",
        "active": true
      },
      "1USAPSU": {
        "description": "Pennsylvania State University, University Park, PA",
        "latitude": 40.8147955,
        "longitude": -77.86531260000001,
        "address": "University Park, State College, PA, USA",
        "active": true
      },
      "1USAPTN": {
        "description": "Princeton University, Princeton, NJ",
        "latitude": 40.3430942,
        "longitude": -74.65507389999999,
        "address": "Princeton, NJ 08544, USA",
        "active": true
      },
      "1USAPUP": {
        "description": "University of Pittsburgh, Pittsburgh, PA",
        "latitude": 40.4443247,
        "longitude": -79.9531762,
        "address": "4200 Fifth Ave, Pittsburgh, PA 15260, USA",
        "active": true
      },
      "1USAPUR": {
        "description": "Purdue University, West Lafayette, IN",
        "latitude": 40.4237054,
        "longitude": -86.92119459999999,
        "address": "610 Purdue Mall, West Lafayette, IN 47907, USA",
        "active": true
      },
      "1USARAN": {
        "description": "The Rand Corporation, Santa Monica, CA",
        "latitude": 34.0194543,
        "longitude": -118.4911912,
        "address": "Santa Monica, CA, USA",
        "active": true
      },
      "1USARDI": {
        "description": "Radiation Dynamics, Inc., Westbury, NY",
        "latitude": 40.7556561,
        "longitude": -73.5876273,
        "address": "Westbury, NY, USA",
        "active": true
      },
      "1USARDL": {
        "description": "University of Redlands, Redlands, CA",
        "latitude": 34.0627062,
        "longitude": -117.1632608,
        "address": "1200 E Colton Ave, Redlands, CA 92373, USA",
        "active": true
      },
      "1USARED": {
        "description": "Redstone Arsenal, AL",
        "latitude": 34.6950842,
        "longitude": -86.65103289999999,
        "address": "Redstone Arsenal, AL, USA",
        "active": true
      },
      "1USAREN": {
        "description": "Reno Metallurgical Research Center, Reno, NV",
        "latitude": 39.5287235,
        "longitude": -119.8115627,
        "address": "Reno, Nevada, 280 N Center St, Reno, NV 89501, USA",
        "active": true
      },
      "1USARES": {
        "description": "Division of Research, USAEC, Washington, DC",
        "latitude": 38.9071923,
        "longitude": -77.0368707,
        "address": "Washington, DC, USA",
        "active": true
      },
      "1USARHI": {
        "description": "Rhode Island University, Kingston, RI",
        "latitude": 41.4862328,
        "longitude": -71.53067879999999,
        "address": "45 Upper College Rd, Kingston, RI 02881, USA",
        "active": true
      },
      "1USARIC": {
        "description": "Rice University, Houston, TX",
        "latitude": 29.7173941,
        "longitude": -95.40183119999999,
        "address": "6100 Main St, Houston, TX 77005, USA",
        "active": true
      },
      "1USARL": {
        "description": "Richland Operations Office, Richland, WA",
        "latitude": 46.28042000000001,
        "longitude": -119.2751996,
        "address": "Richland, WA, USA",
        "active": true
      },
      "1USAROC": {
        "description": "University of Rochester, Rochester, NY",
        "latitude": 43.1305531,
        "longitude": -77.6260033,
        "address": "Rochester, NY, USA",
        "active": true
      },
      "1USARPI": {
        "description": "Rensselaer Polytechnic Institute, Troy, NY",
        "latitude": 42.7297628,
        "longitude": -73.67888839999999,
        "address": "110 8th St, Troy, NY 12180, USA",
        "active": true
      },
      "1USARUT": {
        "description": "Rutgers University, New Brunswick, NJ",
        "latitude": 40.5008405,
        "longitude": -74.44741739999999,
        "address": "New Brunswick, NJ, USA",
        "active": true
      },
      "1USASAI": {
        "description": "Science Applications International Corp., San Diego, CA",
        "latitude": 33.0140251,
        "longitude": -117.0945337,
        "address": "10920 Via Frontera # 400, San Diego, CA 92127, USA",
        "active": true
      },
      "1USASC": {
        "description": "Sandia National Laboratory, Albuquerque, NM",
        "latitude": 35.0606231,
        "longitude": -106.5349498,
        "address": "1515 Eubank Blvd SE, Albuquerque, NM 87123, USA",
        "active": true
      },
      "1USASCA": {
        "description": "University of South Carolina, Columbia, SC",
        "latitude": 33.9937575,
        "longitude": -81.0299186,
        "address": "Columbia, SC 29208, USA",
        "active": true
      },
      "1USASDC": {
        "description": "San Diego State College, San Diego, CA",
        "latitude": 32.7774047,
        "longitude": -117.0714068,
        "address": "5500 Campanile Dr, San Diego, CA 92182, USA",
        "active": true
      },
      "1USASIG": {
        "description": "National Nuclear Data Center, BNL, Upton, NY",
        "latitude": 40.86993229999999,
        "longitude": -72.8817117,
        "address": "55 Upton Rd, Shirley, NY 11967, USA",
        "active": true
      },
      "1USASJS": {
        "description": "San Jose State University, San Jose, CA",
        "latitude": 37.3351874,
        "longitude": -121.8810715,
        "address": "1 Washington Sq, San Jose, CA 95192, USA",
        "active": true
      },
      "1USASLU": {
        "description": "Saint Louis University, Saint Louis, MO",
        "latitude": 38.6348237,
        "longitude": -90.23364079999999,
        "address": "1 N Grand Blvd, St. Louis, MO 63103, USA",
        "active": true
      },
      "1USASMT": {
        "description": "South Dakota School of Mines and Tech., Rapid City,SD",
        "latitude": null,
        "longitude": null,
        "address": null,
        "active": true
      },
      "1USASMU": {
        "description": "Southern Methodist University, Dallas, TX",
        "latitude": 32.8412178,
        "longitude": -96.78451749999999,
        "address": "Dallas, TX 75205, USA",
        "active": true
      },
      "1USASNI": {
        "description": "Southern University Nuclear Institute , Baton Rouge, LA",
        "latitude": 30.5265222,
        "longitude": -91.1929407,
        "address": "801 Harding Blvd, Baton Rouge, LA 70807, USA",
        "active": true
      },
      "1USASNP": {
        "description": "Space Nuclear Propulsion Office, Cleveland, OH",
        "latitude": 41.49932,
        "longitude": -81.6943605,
        "address": "Cleveland, OH, USA",
        "active": true
      },
      "1USASOC": {
        "description": "Socony Mobil Oil Co., Dallas, TX",
        "latitude": 32.7766642,
        "longitude": -96.79698789999999,
        "address": "Dallas, TX, USA",
        "active": true
      },
      "1USASPC": {
        "description": "SPire Corp., Bedford, MA",
        "latitude": 42.4814103,
        "longitude": -71.2665811,
        "address": "40 Wiggins Ave, Bedford, MA 01730, USA",
        "active": true
      },
      "1USASRE": {
        "description": "Space Radiation Effects Laboratory , Newport News, VA",
        "latitude": 37.0870821,
        "longitude": -76.4730122,
        "address": "Newport News, VA, USA",
        "active": true
      },
      "1USASRF": {
        "description": "Sanford Underground Research Facility, Lead, SD",
        "latitude": 44.3516316,
        "longitude": -103.7512503,
        "address": "630 E Summit St, Lead, SD 57754, USA",
        "active": true
      },
      "1USASRI": {
        "description": "Stanford Research Institute, Menlo Park, CA",
        "latitude": 37.4575372,
        "longitude": -122.1764336,
        "address": "333 Ravenswood Ave, Menlo Park, CA 94025, USA",
        "active": true
      },
      "1USASRL": {
        "description": "Savannah River Laboratory , E.I. Dupont, Aiken, SC",
        "latitude": 33.5604168,
        "longitude": -81.7195533,
        "address": "Aiken, SC, USA",
        "active": true
      },
      "1USASTB": {
        "description": "State University of New York, Stony Brook, NY",
        "latitude": 40.908119,
        "longitude": -73.1204032,
        "address": "100 Nicolls Rd, Stony Brook, NY 11794, USA",
        "active": true
      },
      "1USASTF": {
        "description": "Stanford University, Stanford, CA",
        "latitude": 37.42766,
        "longitude": -122.17006,
        "address": "450 Jane Stanford Way, Stanford, CA 94305, USA",
        "active": true
      },
      "1USASTM": {
        "description": "Saint Mary's College of Maryland, St. Mary's City, MD",
        "latitude": 38.1885119,
        "longitude": -76.42627499999999,
        "address": "St. Mary's College of Maryland Admissions Building, 47645 College Dr, St Marys City, MD 20686, USA",
        "active": true
      },
      "1USASUB": {
        "description": "State University of New York, Binghamtom, NY",
        "latitude": 40.7127753,
        "longitude": -74.0059728,
        "address": "New York, NY, USA",
        "active": true
      },
      "1USASUI": {
        "description": "Iowa State University, Ames, IA",
        "latitude": 42.0266573,
        "longitude": -93.64645159999999,
        "address": "Ames, IA 50011, USA",
        "active": true
      },
      "1USASWL": {
        "description": "University of Southwestern Louisiana, Lafayette, LA",
        "latitude": 30.211991,
        "longitude": -92.019914,
        "address": "104 E University Ave, Lafayette, LA 70504, USA",
        "active": true
      },
      "1USASYR": {
        "description": "Syracuse University, Syracuse, NY",
        "latitude": 43.0386502,
        "longitude": -76.1336922,
        "address": "900 S Crouse Ave, Syracuse, NY 13244, USA",
        "active": true
      },
      "1USATAM": {
        "description": "Texas A & M University, College Station, TX",
        "latitude": 31.9685988,
        "longitude": -99.9018131,
        "address": "Texas, USA",
        "active": true
      },
      "1USATEM": {
        "description": "Temple University, Philadelphia, PA",
        "latitude": 39.9811911,
        "longitude": -75.1553563,
        "address": "1801 N Broad St, Philadelphia, PA 19122, USA",
        "active": true
      },
      "1USATEN": {
        "description": "University of Tennessee, Knoxville, TN",
        "latitude": 35.9544013,
        "longitude": -83.92945639999999,
        "address": "Knoxville, TN 37996, USA",
        "active": true
      },
      "1USATEX": {
        "description": "University of Texas, Austin, TX",
        "latitude": 30.2849185,
        "longitude": -97.7340567,
        "address": "Austin, TX 78712, USA",
        "active": true
      },
      "1USATID": {
        "description": "Division of Technical Information , USAEC, Oak Ridge, TN",
        "latitude": 36.0103561,
        "longitude": -84.26964490000002,
        "address": "Oak Ridge, TN, USA",
        "active": true
      },
      "1USATNC": {
        "description": "Texas Nuclear Corp., Austin, TX",
        "latitude": 30.267153,
        "longitude": -97.7430608,
        "address": "Austin, TX, USA",
        "active": true
      },
      "1USATNL": {
        "description": "Triangle Universities Nuclear Laboratory , Durham, NC",
        "latitude": 35.8991678,
        "longitude": -78.86364019999999,
        "address": "Research Triangle Park, Durham, NC, USA",
        "active": true
      },
      "1USATRW": {
        "description": "T R W, Redondo Beach, CA",
        "latitude": 33.8491816,
        "longitude": -118.3884078,
        "address": "Redondo Beach, CA, USA",
        "active": true
      },
      "1USATTU": {
        "description": "Tennessee Technological University , Cookeville, TN",
        "latitude": 36.1763138,
        "longitude": -85.50910859999999,
        "address": "1 William L Jones Dr, Cookeville, TN 38505, USA",
        "active": true
      },
      "1USATUL": {
        "description": "Tulane University, New Orleans, LA",
        "latitude": 29.9407282,
        "longitude": -90.12031669999999,
        "address": "6823 St Charles Ave, New Orleans, LA 70118, USA",
        "active": true
      },
      "1USAUAL": {
        "description": "University of Alabama, AL",
        "latitude": 33.2114385,
        "longitude": -87.5401002,
        "address": "Tuscaloosa, AL 35487, USA",
        "active": true
      },
      "1USAUAZ": {
        "description": "Arizona University , Tucson, AZ",
        "latitude": 32.2318851,
        "longitude": -110.9501094,
        "address": "Tucson, AZ 85721, USA",
        "active": true
      },
      "1USAUCB": {
        "description": "United Nuclear Corp., Tuxedo, NY",
        "latitude": 41.2376671,
        "longitude": -74.1944529,
        "address": "Tuxedo, NY, USA",
        "active": true
      },
      "1USAUCN": {
        "description": "University of Cincinnati, Cincinnati, OH",
        "latitude": 39.1329219,
        "longitude": -84.51495039999999,
        "address": "2600 Clifton Ave, Cincinnati, OH 45221, USA",
        "active": true
      },
      "1USAUCO": {
        "description": "University of Connecticut, Groton, CT",
        "latitude": 41.3170937,
        "longitude": -72.0648246,
        "address": "Academic Building, 1084 Shennecossett Rd, Groton, CT 06340, USA",
        "active": true
      },
      "1USAUCS": {
        "description": "Union Carbide, Sterling Forest Research Center, Tuxedo,NY",
        "latitude": 41.1900271,
        "longitude": -74.1806398,
        "address": "Center St, Tuxedo, NY 10987, USA",
        "active": true
      },
      "1USAUCX": {
        "description": "University of California, Berkeley, CA",
        "latitude": 37.87015100000001,
        "longitude": -122.2594606,
        "address": "University Avenue and, Oxford St, Berkeley, CA 94720, USA",
        "active": true
      },
      "1USAUI": {
        "description": "University of Illinois, Urbana-Champaign, IL",
        "latitude": 40.1019523,
        "longitude": -88.2271615,
        "address": "Champaign, IL, USA",
        "active": true
      },
      "1USAUID": {
        "description": "University of Idaho, Moscow, ID",
        "latitude": 46.7288124,
        "longitude": -117.0126084,
        "address": "875 Perimeter Dr, Moscow, ID 83844, USA",
        "active": true
      },
      "1USAUMA": {
        "description": "University of Massachusetts, Amherst, MA",
        "latitude": 42.3867598,
        "longitude": -72.5300515,
        "address": "Amherst, MA 01003, USA",
        "active": true
      },
      "1USAUMT": {
        "description": "University of Montana, Helena, MT",
        "latitude": 46.5891452,
        "longitude": -112.0391057,
        "address": "Helena, MT, USA",
        "active": true
      },
      "1USAUNB": {
        "description": "University of Nebraska, Lincoln, NE",
        "latitude": 40.8201966,
        "longitude": -96.70047629999999,
        "address": "1400 R St, Lincoln, NE 68588, USA",
        "active": true
      },
      "1USAUNC": {
        "description": "United Nuclear Corp., Elmsford, NY",
        "latitude": 41.0550969,
        "longitude": -73.8201337,
        "address": "Elmsford, NY, USA",
        "active": true
      },
      "1USAUNH": {
        "description": "University of New Hampshire, Durham, NH",
        "latitude": 43.138948,
        "longitude": -70.9370252,
        "address": "105 Main St, Durham, NH 03824, USA",
        "active": true
      },
      "1USAURS": {
        "description": "Ursinus College, Collegeville, PA",
        "latitude": 40.19396769999999,
        "longitude": -75.4563232,
        "address": "601 E Main St, Collegeville, PA 19426, USA",
        "active": true
      },
      "1USAUSA": {
        "description": "United States of America",
        "latitude": 37.09024,
        "longitude": -95.712891,
        "address": "601 E Main St, Collegeville, PA 19426, USA",
        "active": true
      },
      "1USAUSC": {
        "description": "University of Southern California, Los Angeles, CA",
        "latitude": 34.0223519,
        "longitude": -118.285117,
        "address": "Los Angeles, CA 90007, USA",
        "active": true
      },
      "1USAUSU": {
        "description": "Utah State University, Loagn, UT",
        "latitude": 41.745161,
        "longitude": -111.8097425,
        "address": "Logan, UT 84322, USA",
        "active": true
      },
      "1USAUWY": {
        "description": "University of Wyoming, Laramie, WY",
        "latitude": 41.3148754,
        "longitude": -105.5665744,
        "address": "1000 E University Ave, Laramie, WY 82071, USA",
        "active": true
      },
      "1USAVBT": {
        "description": "Vanderbilt University, Nashville, TN",
        "latitude": 36.1447034,
        "longitude": -86.8026551,
        "address": "2201 West End Ave, Nashville, TN 37235, USA",
        "active": true
      },
      "1USAVIP": {
        "description": "Virginia Polytechnic Institute, Blacksburg, VA",
        "latitude": 37.22838429999999,
        "longitude": -80.42341669999999,
        "address": "Blacksburg, VA 24061, USA",
        "active": true
      },
      "1USAVIR": {
        "description": "University of Virginia, Charlottesville, VA",
        "latitude": 38.0335529,
        "longitude": -78.5079772,
        "address": "Charlottesville, VA, USA",
        "active": true
      },
      "1USAWAD": {
        "description": "Wright Air Development Center, OH",
        "latitude": 40.4172871,
        "longitude": -82.90712300000001,
        "address": "Ohio, USA",
        "active": false
      },
      "1USAWAL": {
        "description": "Westinghouse Astronuclear Laboratory , Pittsburgh, PA",
        "latitude": 40.4081023,
        "longitude": -80.0190117,
        "address": "Westinghouse St, Pittsburgh, PA 15216, USA",
        "active": true
      },
      "1USAWAP": {
        "description": "Westinghouse Atomic Power Division , Pittsburgh, PA",
        "latitude": 40.4609795,
        "longitude": -79.90090029999999,
        "address": "1101 N Murtland St, Pittsburgh, PA 15208, USA",
        "active": true
      },
      "1USAWAS": {
        "description": "Washington University, St.Louis, MO",
        "latitude": 38.6487895,
        "longitude": -90.31079620000001,
        "address": "1 Brookings Dr, St. Louis, MO 63130, USA",
        "active": true
      },
      "1USAWAT": {
        "description": "Watertown Arsenal, Watertown, MA",
        "latitude": 42.3618595,
        "longitude": -71.1586155,
        "address": "130 Arsenal Yards Blvd, Watertown, MA 02472, USA",
        "active": true
      },
      "1USAWAU": {
        "description": "University of Washington, Seattle, WA",
        "latitude": 47.65464069999999,
        "longitude": -122.3074579,
        "address": "1410 NE Campus Pkwy, Seattle, WA 98195, USA",
        "active": true
      },
      "1USAWAY": {
        "description": "Wayne State University, Detroit, MI",
        "latitude": 42.3591388,
        "longitude": -83.06654619999999,
        "address": "42 W Warren Ave, Detroit, MI 48202, USA",
        "active": true
      },
      "1USAWES": {
        "description": "Westinghouse Research Laboratory , Pittsburgh, PA",
        "latitude": 40.4081023,
        "longitude": -80.0190117,
        "address": "Westinghouse St, Pittsburgh, PA 15216, USA",
        "active": true
      },
      "1USAWEW": {
        "description": "Westinghouse Advanced Reactor Division , Pittsburgh, PA",
        "latitude": 40.4609795,
        "longitude": -79.90090029999999,
        "address": "1101 N Murtland St, Pittsburgh, PA 15208, USA",
        "active": true
      },
      "1USAWGC": {
        "description": "West Georgia College, Carrolton, GA",
        "latitude": 33.575346,
        "longitude": -85.1041219,
        "address": "1601 Maple St, Carrollton, GA 30118, USA",
        "active": true
      },
      "1USAWIS": {
        "description": "University of Wisconsin, Madison, WI",
        "latitude": 43.076592,
        "longitude": -89.4124875,
        "address": "Madison, WI, USA",
        "active": true
      },
      "1USAWKU": {
        "description": "Western Kentucky University, Bowling Green, KY",
        "latitude": 36.9847167,
        "longitude": -86.456,
        "address": "Western Kentucky University, 1906 College Heights Blvd, Bowling Green, KY 42101, USA",
        "active": true
      },
      "1USAWLY": {
        "description": "Wesleyan University, Middletown, CT",
        "latitude": 41.5567587,
        "longitude": -72.6568336,
        "address": "45 Wyllys Ave, Middletown, CT 06459, USA",
        "active": true
      },
      "1USAWMC": {
        "description": "College of William and Mary, Williamsburg, VA",
        "latitude": 37.2709753,
        "longitude": -76.7162467,
        "address": "200 Stadium Dr, Williamsburg, VA 23185, USA",
        "active": true
      },
      "1USAWMU": {
        "description": "Western Michigan University, Kalamazoo, MI",
        "latitude": 42.2831778,
        "longitude": -85.61521859999999,
        "address": "Western Michigan University/KRPH, Kalamazoo, MI, USA",
        "active": true
      },
      "1USAWPI": {
        "description": "Worcester Polytechnic Institute, Worcester, MA",
        "latitude": 42.2746179,
        "longitude": -71.8068416,
        "address": "100 Institute Rd, Worcester, MA 01609, USA",
        "active": true
      },
      "1USAWRU": {
        "description": "Western Reserve University, Cleveland, OH",
        "latitude": 41.5043413,
        "longitude": -81.6083838,
        "address": "10900 Euclid Ave, Cleveland, OH 44106, USA",
        "active": true
      },
      "1USAWSA": {
        "description": "White Sands Missile Range, White Sands, NM",
        "latitude": 32.38759,
        "longitude": -106.47969,
        "address": "White Sands Missile Range (WSMR), White Sands, NM 88002, USA",
        "active": true
      },
      "1USAWSU": {
        "description": "Washington State University, Pullman, WA",
        "latitude": 46.7298283,
        "longitude": -117.1745403,
        "address": "150 E Spring St, Pullman, WA 99163, USA",
        "active": true
      },
      "1USAWVU": {
        "description": "University of West Virginia, Morgentown, WV",
        "latitude": 39.6480359,
        "longitude": -79.9697147,
        "address": "Morgantown, WV 26506, USA",
        "active": true
      },
      "1USAWWS": {
        "description": "Western Washington State College, Bellingham, WA",
        "latitude": 48.7342877,
        "longitude": -122.4866102,
        "address": "516 High St, Bellingham, WA 98225, USA",
        "active": true
      },
      "1USAYAL": {
        "description": "Yale University, New Haven, CT",
        "latitude": 41.3163244,
        "longitude": -72.92234309999999,
        "address": "New Haven, CT 06520, USA",
        "active": true
      },
      "2AUSATI": {
        "description": "Atominstitut der Technischen Universitaet Wien,Vienna",
        "latitude": 48.1967481,
        "longitude": 16.4127923,
        "address": "Atominstitut, Sch\u00fcttelstra\u00dfe 115, 1020 Wien, Austria",
        "active": true
      },
      "2AUSAUS": {
        "description": "Austria",
        "latitude": 47.516231,
        "longitude": 14.550072,
        "address": "Atominstitut, Sch\u00fcttelstra\u00dfe 115, 1020 Wien, Austria",
        "active": true
      },
      "2AUSGFK": {
        "description": "Technische Universitaet Graz, Graz",
        "latitude": 47.0694191,
        "longitude": 15.4503768,
        "address": "Rechbauerstra\u00dfe 12, 8010 Graz, Austria",
        "active": true
      },
      "2AUSIRK": {
        "description": "Institute fuer Isotopenforschung und Kernphysik, Vienna",
        "latitude": 48.2081743,
        "longitude": 16.3738189,
        "address": "Vienna, Austria",
        "active": false
      },
      "2AUSKUL": {
        "description": "Johannes-Kepler-Universitaet, Linz",
        "latitude": 48.30694,
        "longitude": 14.28583,
        "address": "Linz, Austria",
        "active": true
      },
      "2AUSPVI": {
        "description": "Institute fuer Experimentalphysik, Universitaet Wien",
        "latitude": 48.21318549999999,
        "longitude": 16.3600504,
        "address": "Universit\u00e4tsring 1, 1010 Wien, Austria",
        "active": false
      },
      "2AUSSGA": {
        "description": "Oest.Forschungszentrum Seibersdorf, Wien+Seibersdorf",
        "latitude": 48.2081743,
        "longitude": 16.3738189,
        "address": "Vienna, Austria",
        "active": true
      },
      "2AUSTHV": {
        "description": "Technische Universitaet Wien, Vienna",
        "latitude": 48.1986546,
        "longitude": 16.3684626,
        "address": "1040 Vienna, Austria",
        "active": true
      },
      "2AUSTPG": {
        "description": "Universitaet Graz, Graz",
        "latitude": 47.0776328,
        "longitude": 15.4495241,
        "address": "Universit\u00e4tspl. 3, 8010 Graz, Austria",
        "active": true
      },
      "2AUSVIE": {
        "description": "Universitaet Wien, Vienna",
        "latitude": 48.21318549999999,
        "longitude": 16.3600504,
        "address": "Universit\u00e4tsring 1, 1010 Wien, Austria",
        "active": true
      },
      "2BLGBLG": {
        "description": "Belgium",
        "latitude": 50.503887,
        "longitude": 4.469936,
        "address": "Universit\u00e4tsring 1, 1010 Wien, Austria",
        "active": true
      },
      "2BLGBN": {
        "description": "Belgonucleaire",
        "latitude": 50.503887,
        "longitude": 4.469936,
        "address": "Belgium",
        "active": true
      },
      "2BLGBRU": {
        "description": "Universite Libre de Bruxelles, Bruxelles",
        "latitude": 50.8132068,
        "longitude": 4.3822222,
        "address": "Av. Franklin Roosevelt 50, 1050 Bruxelles, Belgium",
        "active": true
      },
      "2BLGGHT": {
        "description": "Universiteit Gent, Gent",
        "latitude": 51.0500182,
        "longitude": 3.7303351,
        "address": "Ghent, Belgium",
        "active": true
      },
      "2BLGLEU": {
        "description": "Katholieke University Leuven, Leuven",
        "latitude": 50.87595659999999,
        "longitude": 4.7004882,
        "address": "ZI, 3000 Leuven, Belgium",
        "active": true
      },
      "2BLGLIE": {
        "description": "University of Liege, Liege",
        "latitude": 50.6408274,
        "longitude": 5.576058499999999,
        "address": "Pl. du Vingt Ao\u00fbt 7, 4000 Li\u00e8ge, Belgium",
        "active": true
      },
      "2BLGLVN": {
        "description": "Catholic University of Louvain, Louvain-la-Neuve",
        "latitude": 50.6696767,
        "longitude": 4.615875,
        "address": "Pl. de l'Universit\u00e9 1, 1348 Ottignies-Louvain-la-Neuve, Belgium",
        "active": true
      },
      "2BLGMOL": {
        "description": "SCK CEN (Belgian Nuclear Research Centre), Mol",
        "latitude": 51.21900979999999,
        "longitude": 5.093685499999999,
        "address": "Boeretang 200, 2400 Mol, Belgium",
        "active": true
      },
      "2BLGNAM": {
        "description": "University \"Notre Dame de la Paix\", Namur",
        "latitude": 50.4412133,
        "longitude": 4.8961852,
        "address": "Pl. Notre Dame de la Paix, 5101 Namur, Belgium",
        "active": true
      },
      "2BLGPCL": {
        "description": "Institut de Physique Corpusculaire, Louvain-la-Neuve",
        "latitude": 50.66808100000001,
        "longitude": 4.6118324,
        "address": "Louvain-la-Neuve, 1348 Ottignies-Louvain-la-Neuve, Belgium",
        "active": false
      },
      "2BLGUIA": {
        "description": "University Instelling, Anvers",
        "latitude": 51.2213404,
        "longitude": 4.4051485,
        "address": "Antwerp, Belgium",
        "active": true
      },
      "2BLGUMK": {
        "description": "Union Miniere du Haut Katanga, Bruxelles",
        "latitude": 50.81232379999999,
        "longitude": 4.316388900000001,
        "address": "Boulevard de la 2me Arm\u00e9e Britannique 476, 1190 Vorst, Belgium",
        "active": true
      },
      "2BLGVUB": {
        "description": "Vrije Universiteit Brussels, Brussels",
        "latitude": 50.8448601,
        "longitude": 4.372622799999999,
        "address": "Rue de la Loi, 1000 Bruxelles, Belgium",
        "active": true
      },
      "2DENAAU": {
        "description": "Aarhus University, Aarhus",
        "latitude": 56.162939,
        "longitude": 10.203921,
        "address": "Aarhus, Denmark",
        "active": true
      },
      "2DENCOP": {
        "description": "University of Copenhagen, Copenhagen",
        "latitude": 55.6802303,
        "longitude": 12.5724096,
        "address": "N\u00f8rregade 10, 1172 K\u00f8benhavn, Denmark",
        "active": true
      },
      "2DENDEN": {
        "description": "Denmark",
        "latitude": 56.26392,
        "longitude": 9.501785,
        "address": "N\u00f8rregade 10, 1172 K\u00f8benhavn, Denmark",
        "active": true
      },
      "2DENNBI": {
        "description": "Niels Bohr Institute, Copenhagen",
        "latitude": 55.6968296,
        "longitude": 12.5715898,
        "address": "Blegdamsvej 17, 2100 K\u00f8benhavn, Denmark",
        "active": true
      },
      "2DENNTA": {
        "description": "NORDITA, Copenhagen, Denmark",
        "latitude": 56.26392,
        "longitude": 9.501785,
        "address": "Denmark",
        "active": true
      },
      "2DENRIS": {
        "description": "Research Establishment Risoe, Roskilde",
        "latitude": 55.6925969,
        "longitude": 12.0974455,
        "address": "Frederiksborgvej 399, 4000 Roskilde, Denmark",
        "active": true
      },
      "2EIREIR": {
        "description": "Ireland",
        "latitude": 53.77975540000001,
        "longitude": -7.3055309,
        "address": "Frederiksborgvej 399, 4000 Roskilde, Denmark",
        "active": true
      },
      "2EIRUCD": {
        "description": "University College, Dublin",
        "latitude": 53.3064504,
        "longitude": -6.2186939,
        "address": "University College Dublin, Belfield, Dublin 4, Ireland",
        "active": true
      },
      "2FR AAA": {
        "description": "Groupement Atomique Alsacienne Atlantique",
        "latitude": "",
        "longitude": "",
        "address": "",
        "active": false
      },
      "2FR ARN": {
        "description": "GIP Arronax, Saint Herblain",
        "latitude": 47.210335,
        "longitude": -1.651444,
        "address": "44800 Saint-Herblain, France",
        "active": true
      },
      "2FR BOR": {
        "description": "Universite de Bordeaux",
        "latitude": 44.8244914,
        "longitude": -0.6059053,
        "address": "Amphith\u00e9\u00e2tre 3 \u00e0 12, 33000 Bordeaux, France",
        "active": true
      },
      "2FR BRC": {
        "description": "CEA/DAM Ile-de-France, Bruyeres-le-Chatel, Arpajon",
        "latitude": 48.59726449999999,
        "longitude": 2.2026418,
        "address": "Chem. du Ru, 91680 Bruy\u00e8res-le-Ch\u00e2tel, France",
        "active": true
      },
      "2FR CAD": {
        "description": "CEA/Cadarache",
        "latitude": 43.6997373,
        "longitude": 5.739980099999999,
        "address": "Cadarache, 13108 Saint-Paul-lez-Durance, France",
        "active": true
      },
      "2FR CAE": {
        "description": "Universite de Caen",
        "latitude": 49.192806,
        "longitude": -0.363926,
        "address": "Esp. de la Paix, 14000 Caen, France",
        "active": true
      },
      "2FR CEL": {
        "description": "CEN Limeil",
        "latitude": 48.7461849,
        "longitude": 2.492154,
        "address": "94450 Limeil-Br\u00e9vannes, France",
        "active": false
      },
      "2FR CLE": {
        "description": "Universite Blaise Pascal, Clermont-Ferrand",
        "latitude": "",
        "longitude": "",
        "address": "",
        "active": true
      },
      "2FR CRI": {
        "description": "Centre d'Etudes et de Rech. par Irrad., CNRS-Orleans",
        "latitude": 47.832698,
        "longitude": 1.9431206,
        "address": "45100 Orl\u00e9ans, France",
        "active": true
      },
      "2FR CSN": {
        "description": "Centre Sci. Nuclear et Sci. Matiere (CSNSM), Orsay",
        "latitude": 48.6984888,
        "longitude": 2.1755683,
        "address": "Building, 108, 101 Domaine de l'Universit\u00e9 de Paris S, 91400 Orsay, France",
        "active": true
      },
      "2FR EDF": {
        "description": "Electricite de France, Paris",
        "latitude": 48.8896777,
        "longitude": 2.3768064,
        "address": "14 Rue Duvergier, 75019 Paris, France",
        "active": true
      },
      "2FR ENS": {
        "description": "Ecole Normale Superieure, Paris",
        "latitude": 48.856614,
        "longitude": 2.3522219,
        "address": "Paris, France",
        "active": true
      },
      "2FR FAR": {
        "description": "CEA/Fontenay-aux-Roses",
        "latitude": 48.7887288,
        "longitude": 2.2762109,
        "address": "18 Rte du Panorama, 92260 Fontenay-aux-Roses, France",
        "active": true
      },
      "2FR FR": {
        "description": "France",
        "latitude": 46.227638,
        "longitude": 2.213749,
        "address": "18 Rte du Panorama, 92260 Fontenay-aux-Roses, France",
        "active": true
      },
      "2FR GAN": {
        "description": "Grand Accelerateur National d'Ions Lourds, Caen",
        "latitude": 49.2145996,
        "longitude": -0.360253,
        "address": "Bd Henri Becquerel, 14000 Caen, France",
        "active": true
      },
      "2FR GRA": {
        "description": "Centre d'Etudes Nucleaires de Bordeaux-Gradignan",
        "latitude": 44.77426699999999,
        "longitude": -0.618945,
        "address": "33170 Gradignan, France",
        "active": true
      },
      "2FR GRE": {
        "description": "Universite Joseph Fourier, Grenoble",
        "latitude": 45.1651501,
        "longitude": 5.7281889,
        "address": "14 Av. Marie Reynoard, 38100 Grenoble, France",
        "active": true
      },
      "2FR ILL": {
        "description": "Institut Laue-Langevin, Grenoble",
        "latitude": 45.2066097,
        "longitude": 5.6935792,
        "address": "71 Av. des Martyrs, 38000 Grenoble, France",
        "active": true
      },
      "2FR ITL": {
        "description": "CEA/Valduc, Is-sur-tille",
        "latitude": 47.5808833,
        "longitude": 4.8643906,
        "address": "21510 Salives, France",
        "active": true
      },
      "2FR LIM": {
        "description": "CEN Limeil",
        "latitude": 48.7461849,
        "longitude": 2.492154,
        "address": "94450 Limeil-Br\u00e9vannes, France",
        "active": false
      },
      "2FR LRM": {
        "description": "Laboratory de Recherche des Musees de France, Paris",
        "latitude": 48.856614,
        "longitude": 2.3522219,
        "address": "Paris, France",
        "active": true
      },
      "2FR LYO": {
        "description": "Universite de Lyon",
        "latitude": 45.764043,
        "longitude": 4.835659,
        "address": "Lyon, France",
        "active": true
      },
      "2FR NTE": {
        "description": "Universite de Nantes",
        "latitude": 47.2096125,
        "longitude": -1.5559578,
        "address": "1 Quai de Tourville, 44035 Nantes Cedex 1, France",
        "active": true
      },
      "2FR PAR": {
        "description": "Universite de Paris",
        "latitude": 48.856614,
        "longitude": 2.3522219,
        "address": "Paris, France",
        "active": true
      },
      "2FR PAU": {
        "description": "Department de Recherches Physiques, St-Paul-les-Durance",
        "latitude": 43.6870649,
        "longitude": 5.707942,
        "address": "Saint-Paul-lez-Durance, France",
        "active": false
      },
      "2FR PCF": {
        "description": "College de France, Paris",
        "latitude": 48.84897489999999,
        "longitude": 2.3451788,
        "address": "11 Pl. Marcelin Berthelot, 75231 Paris, France",
        "active": true
      },
      "2FR SAC": {
        "description": "CEA/Saclay",
        "latitude": 48.73668,
        "longitude": 2.180034,
        "address": "91400 Saclay, France",
        "active": true
      },
      "2FR SAT": {
        "description": "Laboratoire National SATURNE, Saclay",
        "latitude": 48.73668,
        "longitude": 2.180034,
        "address": "91400 Saclay, France",
        "active": false
      },
      "2FR STR": {
        "description": "IPHC, Strasbourg",
        "latitude": 48.6056861,
        "longitude": 7.7099432,
        "address": "Batiment 27, BP28, 67037 Cedex 2, 23 Rue du Loess, 67200 Strasbourg, France",
        "active": true
      },
      "2FR TOU": {
        "description": "Universite de Toulouse",
        "latitude": 43.5949246,
        "longitude": 1.4514067,
        "address": "41 All. Jules Guesde, 31000 Toulouse, France",
        "active": true
      },
      "2FR ULP": {
        "description": "Universite de Strasbourg, Strasbourg",
        "latitude": 48.5734053,
        "longitude": 7.752111299999999,
        "address": "Strasbourg, France",
        "active": true
      },
      "2FR VNV": {
        "description": "Centre d'Etudes de Limeil, Villeneuve-Saint-Georges",
        "latitude": 48.7461849,
        "longitude": 2.492154,
        "address": "94450 Limeil-Br\u00e9vannes, France",
        "active": false
      },
      "2GERALK": {
        "description": "Alkem GMBH, Leopoldshafen",
        "latitude": 49.0788756,
        "longitude": 8.391582699999999,
        "address": "76344 Eggenstein-Leopoldshafen, Germany",
        "active": true
      },
      "2GERBBC": {
        "description": "Brown-Boveri/Krupp, Mannheim",
        "latitude": 49.4874592,
        "longitude": 8.466039499999999,
        "address": "Mannheim, Germany",
        "active": true
      },
      "2GERBER": {
        "description": "Hahn-Meitner-Institut, Berlin",
        "latitude": 52.41116,
        "longitude": 13.1298531,
        "address": "Hahn-Meitner-Platz 1, 14109 Berlin, Germany",
        "active": true
      },
      "2GERBOC": {
        "description": "Ruhr-Universitaet Bochum",
        "latitude": 51.4468863,
        "longitude": 7.2617049,
        "address": "Universit\u00e4tsstra\u00dfe 150, 44801 Bochum, Germany",
        "active": true
      },
      "2GERBON": {
        "description": "University of Bonn",
        "latitude": 50.7267806,
        "longitude": 7.0864528,
        "address": "Regina-Pacis-Weg 3, 53113 Bonn, Germany",
        "active": true
      },
      "2GERDKZ": {
        "description": "Deutsches Krebsforschungszentrum, Heidelberg",
        "latitude": 49.414414,
        "longitude": 8.672960699999999,
        "address": "Deutsches Krebsforschungszentrum (DKFZ), Im Neuenheimer Feld 280, 69120 Heidelberg, Germany",
        "active": true
      },
      "2GERDOR": {
        "description": "Dortmund University , F.R.Germany",
        "latitude": 51.4894786,
        "longitude": 7.4146594,
        "address": "Poststelle: August-Schmidt-Stra\u00dfe 1 Rektorat:, August-Schmidt-Stra\u00dfe 4, 44227 Dortmund, Germany",
        "active": true
      },
      "2GERDRE": {
        "description": "Technische Universitaet Dresden, Dresden and Pirna",
        "latitude": 51.0292367,
        "longitude": 13.728915,
        "address": "Technische Universit\u00e4t Dresden, 01069 Dresden, Germany",
        "active": true
      },
      "2GERFRB": {
        "description": "Freiburg im Breisgau, Universitaet",
        "latitude": 47.9935441,
        "longitude": 7.845949599999999,
        "address": "Fahnenbergplatz, 79085 Freiburg im Breisgau, Germany",
        "active": true
      },
      "2GERFRK": {
        "description": "J.W.Goethe University , Frankfurt/Main",
        "latitude": 50.1270675,
        "longitude": 8.6677635,
        "address": "Theodor-W.-Adorno-Platz 1, 60629 Frankfurt am Main, Germany",
        "active": true
      },
      "2GERGAR": {
        "description": "Max-Planck-Institut fuer Plasmaphysik, Garching",
        "latitude": 48.2635556,
        "longitude": 11.6712259,
        "address": "Boltzmannstra\u00dfe 2, 85748 Garching bei M\u00fcnchen, Germany",
        "active": true
      },
      "2GERGEE": {
        "description": "Geesthacht, GKSS",
        "latitude": 53.4104458,
        "longitude": 10.4224007,
        "address": "Max-Planck-Stra\u00dfe 1, 21502 Geesthacht, Germany",
        "active": false
      },
      "2GERGER": {
        "description": "Germany",
        "latitude": 51.165691,
        "longitude": 10.451526,
        "address": "Max-Planck-Stra\u00dfe 1, 21502 Geesthacht, Germany",
        "active": true
      },
      "2GERGOE": {
        "description": "University of Goettingen",
        "latitude": 51.54149460000001,
        "longitude": 9.9375952,
        "address": "Wilhelmsplatz 1, 37073 G\u00f6ttingen, Germany",
        "active": true
      },
      "2GERGSI": {
        "description": "GSI Helmholtzzent. f. Schwerionenforschung, Darmstadt",
        "latitude": 49.8728253,
        "longitude": 8.6511929,
        "address": "Darmstadt, Germany",
        "active": true
      },
      "2GERHAM": {
        "description": "Hamburg, Universitaet",
        "latitude": 53.5642276,
        "longitude": 9.9950229,
        "address": "Mittelweg 177, 20148 Hamburg, Germany",
        "active": true
      },
      "2GERHEI": {
        "description": "Heidelberg, Universitaet",
        "latitude": 49.4112623,
        "longitude": 8.706192399999999,
        "address": "Grabengasse 1, 69117 Heidelberg, Germany",
        "active": true
      },
      "2GERIAK": {
        "description": "Institut fuer Angewandte Kernphysik, Karlsruhe",
        "latitude": 49.0089167,
        "longitude": 8.4112441,
        "address": "Waldhornstra\u00dfe 30, 76131 Karlsruhe, Germany",
        "active": false
      },
      "2GERIFS": {
        "description": "Institut fuer Strahlenphysik, Stuttgart",
        "latitude": 48.7758459,
        "longitude": 9.1829321,
        "address": "Stuttgart, Germany",
        "active": false
      },
      "2GERIKA": {
        "description": "Informationssystem Karlsruhe,",
        "latitude": 49.0068901,
        "longitude": 8.4036527,
        "address": "Karlsruhe, Germany",
        "active": true
      },
      "2GERINA": {
        "description": "Interatom, Bensberg",
        "latitude": 50.9647506,
        "longitude": 7.1548209,
        "address": "Bensberg, Bergisch Gladbach, Germany",
        "active": true
      },
      "2GERJEU": {
        "description": "Jena University ",
        "latitude": 50.92943289999999,
        "longitude": 11.5896642,
        "address": "F\u00fcrstengraben 1, 07743 Jena, Germany",
        "active": true
      },
      "2GERJLU": {
        "description": "Justus Liebig University , Giessen",
        "latitude": 50.5804674,
        "longitude": 8.6771403,
        "address": "Ludwigstra\u00dfe 23, 35390 Gie\u00dfen, Germany",
        "active": true
      },
      "2GERJUL": {
        "description": "Forschungszentrum Juelich, Juelich",
        "latitude": 50.9054919,
        "longitude": 6.4111416,
        "address": "Wilhelm-Johnen-Stra\u00dfe, 52428 J\u00fclich, Germany",
        "active": true
      },
      "2GERKFK": {
        "description": "Karlsruhe Institute of Technology (KIT)",
        "latitude": 49.0119199,
        "longitude": 8.4170303,
        "address": "76131 Karlsruhe, Germany",
        "active": true
      },
      "2GERKIG": {
        "description": "GKSS, Geesthacht",
        "latitude": 53.4104458,
        "longitude": 10.4224007,
        "address": "Max-Planck-Stra\u00dfe 1, 21502 Geesthacht, Germany",
        "active": true
      },
      "2GERKIL": {
        "description": "University of Kiel, Kiel",
        "latitude": 54.3435076,
        "longitude": 10.1149433,
        "address": "Christian-Albrechts-Platz 4, 24118 Kiel, Germany",
        "active": true
      },
      "2GERKLN": {
        "description": "Universitaet zu Koeln, Koeln",
        "latitude": 50.937531,
        "longitude": 6.9602786,
        "address": "Cologne, Germany",
        "active": true
      },
      "2GERKRU": {
        "description": "Karlsruhe, University ",
        "latitude": 49.0119199,
        "longitude": 8.4170303,
        "address": "76131 Karlsruhe, Germany",
        "active": true
      },
      "2GERLMU": {
        "description": "Ludwig-Maximilians Universitaet Muenchen",
        "latitude": 48.1507496,
        "longitude": 11.5805262,
        "address": "Geschwister-Scholl-Platz 1, 80539 M\u00fcnchen, Germany",
        "active": true
      },
      "2GERMBG": {
        "description": "University of Marburg",
        "latitude": 50.8101824,
        "longitude": 8.7739563,
        "address": "Biegenstra\u00dfe 10, 35037 Marburg, Germany",
        "active": true
      },